{"":{"title":"Sacré Coeur de Montmartre","address":"35 Rue du Chevalier de la Barre, 75018 Paris, France","full_address":null,"latitude":"48.887691","longitude":"2.340607"},"ChIJ2dGMjMMEdkgRqVqkuXQkj7c":{"title":"Big Ben","address":"London SW1A 0AA, UK","full_address":"Big Ben, London, UK","latitude":"51.500729","longitude":"-0.124625"},"ChIJSdtli0MDdkgRLW9aCBpCeJ4":{"title":"Tower Bridge","address":"Tower Bridge Rd, London SE1 2UP, UK","full_address":"Tower Bridge, Tower Bridge Road, London, UK","latitude":"51.505456","longitude":"-0.075356"},"ChIJlRl2MakEdkgR55tr4CNv_B8":{"title":"Tate Modern","address":"Bankside, London SE1 9TG, UK","full_address":"Tate Modern, Bankside, London, UK","latitude":"51.507595","longitude":"-0.099356"},"ChIJSWdwgdMCdkgRSqqVYyuPDJM":{"title":"The Yurt Café","address":"St. Katharine's Precinct, 2 Butcher Row, London E14 8DS, UK","full_address":"The Yurt Café, Butcher Row, London, UK","latitude":"51.512122","longitude":"-0.04109"},"ChIJo36nPSkDdkgRfzN4k6k6rDM":{"title":"Wapping Docklands Market","address":"Brussels Wharf, Glamis Rd, London E1W 3TD, UK","full_address":"Wapping Docklands Market, Glamis Road, London, UK","latitude":"51.507892","longitude":"-0.051471"},"ChIJDZPR4SgDdkgR2_djyaGslOM":{"title":"Prospect of Whitby","address":"57 Wapping Wall, London E1W 3SH, UK","full_address":"Prospect of Whitby, Wapping Wall, London, UK","latitude":"51.507102","longitude":"-0.051116"},"ChIJBz-6TCUDdkgRIaHLfpokbAE":{"title":"Waterside Gardens","address":"104-106 Wapping High St, London E1W 2PR, UK","full_address":"Waterside Gardens, Wapping High Street, London, UK","latitude":"51.50292","longitude":"-0.059486"},"EhhUb3dlciBCcmlkZ2UsIExvbmRvbiwgVUsiLiosChQKEgmLa-2vSAN2SBH1VkQtFsd2mhIUChIJ8_MXt1sbdkgRCrIAOXkukUk":{"title":"Tower Bridge","address":"Tower Bridge, London, UK","full_address":"Tower Bridge, London, UK","latitude":"51.506355","longitude":"-0.074807"},"ChIJlVjwAYlbDhMRZmsnAlnw2-o":{"title":"St. Peter's Pool","address":"St. Peter's Pool, Malta","full_address":"St. Peter's Pool, Malta","latitude":"35.833129","longitude":"14.562119"},"ChIJA2TSAplbDhMRHg8jvwzWXdM":{"title":"Marsaxlokk Open Market","address":"79 Xatt is-Sajjieda, Marsaxlokk, Malta","full_address":"Marsaxlokk Open Market, Xatt is-Sajjieda, Marsaxlokk, Malta","latitude":"35.84109","longitude":"14.545276"},"ChIJe-KGvchbDhMR8LxLF8XGrq4":{"title":"Pretty Bay","address":"Pretty Bay, Malta","full_address":"Pretty Bay, Malta","latitude":"35.824886","longitude":"14.529297"},"ChIJ96EsM7JQDhMRrfAj0KOMgcA":{"title":"Blue Grotto","address":"Blue Grotto, Malta","full_address":"Blue Grotto, Malta","latitude":"35.820856","longitude":"14.457409"},"ChIJizWIRkJRDhMRNQqRo8pSjdc":{"title":"Dingli Cliffs","address":"V92P+V45, Dingli, Malta","full_address":"Dingli Cliffs, Dingli, Malta","latitude":"35.85214","longitude":"14.385372"},"ChIJ8WnvEg9FDhMRK1ThNtak31o":{"title":"La Baguette","address":"La Baguette, Triq Zimmermann Barbaro, Tas-Sliema, Malta","full_address":"La Baguette, La Baguette, Triq Zimmermann Barbaro, Sliema, Malta","latitude":"35.908691","longitude":"14.507381"},"ChIJffr_fZBNDhMR0QFW8mKkLAc":{"title":"Riviera Beach","address":"Riviera Beach, Mġarr, Malta","full_address":"Riviera Beach, Mġarr, Malta","latitude":"35.929708","longitude":"14.345098"},"ChIJQUUQ2JlNDhMRIjec7ddy85w":{"title":"Golden Bay","address":"Golden Bay, Mellieħa, Malta","full_address":"Golden Bay, Mellieħa, Malta","latitude":"35.93387","longitude":"14.344461"},"ChIJWQGj4TJMDhMRsFdF-12l0Os":{"title":"Mellieħa","address":"Mellieħa, Malta","full_address":"Mellieħa, Malta","latitude":"35.956553","longitude":"14.363558"},"ChIJ3bPxx6JNDhMRu4pcyccTsLc":{"title":"Пляж Меллиха Бэй","address":"X8CX+FXP, Triq Il-Marfa, Il-Mellieħa, Malta","full_address":"Mellieha Beach Bay, Triq Il-Marfa, Mellieħa, Malta","latitude":"35.971211","longitude":"14.349947"}}